address,id,latitude,longitude,city,name,zip code,brand,WiFi,Bagels in the Bou,Nitro on Tap,Order Ahead,Gluten-Free Offerings,Drive-Thru,Gluten Free Offerings,Limited Coffee Menu,Catering
"9955 Hudson Place Woodbury, MN",8865396,44.9439755819839,-92.90470764040947,Woodbury,Woodbury Marketplace,55125,Caribou,1,1,1,1,1,0,0,0,0
"8320 City Centre Drive Woodbury, MN",8865631,44.920800179692954,-92.93841361999512,Woodbury,Woodbury - City Center Drive,55125,Caribou,1,0,1,1,1,0,0,0,0
"365 Radio Drive Woodbury, MN",8865374,44.942397938551295,-92.9320715367794,Woodbury,Coffee & Bagels City Place,55125,Caribou,1,0,1,1,0,0,0,0,0
"7050 Valley Creek Plaza Woodbury, MN",8865630,44.92718305049149,-92.96381929447739,Woodbury,Lunds & Byerlys - Woodbury,55125,Caribou,0,0,0,0,0,0,0,0,0
"2360 Badger Drive Hudson, Wi",8865412,44.961318257850955,-92.72456914186472,Hudson,Hudson Center,54016,Caribou,0,1,0,1,1,1,0,0,0
"105 Carmichael Road Hudson, Wi",8865411,44.96582053543435,-92.72197210211374,Hudson,Hudson Marketplace,54016,Caribou,1,1,0,1,1,0,0,0,0
"7009 10th Street North Oakdale, MN",8865395,44.9628691,-92.9636024,Oakdale,Bergen Plaza,55128,Caribou,1,1,1,1,1,1,0,0,0
"185 Century Ave. Woodbury, MN",9061075,44.946152914494405,-92.98386090674592,Woodbury,Coffee & Bagels Woodbury - Century Ave,55125,Caribou,0,0,0,1,0,0,0,0,0
"7145 East Point Douglas Road South Cottage Grove, MN",8865398,44.8330503,-92.9600668,Cottage Grove,Cottage Grove - East Point Douglas,55016,Caribou,1,1,1,1,1,0,0,0,0
"2133 Old Hudson Road St. Paul, MN",8865622,44.9517814,-93.0104407,St. Paul,Sun Ray Bruegger's Co-Brand,55119,Caribou,1,0,0,0,0,1,0,0,0
"1830 Market Drive Stillwater, MN",8865377,45.03901636053575,-92.84206062555313,Stillwater,Stillwater - Marketplace III,55082,Caribou,1,1,1,1,1,0,0,0,0
"1005 Eagle Ridge Drive Prescott, Wi",8865664,44.7623583,-92.7889009,Prescott,Ptacek's Iga,54021,Caribou,0,0,0,0,0,1,0,0,0
"6014 Highway 36 Oakdale, MN",8865399,45.02075397055351,-92.98436522483826,Oakdale,Highway 36 & Century,55128,Caribou,1,1,1,1,1,1,0,0,0
"303 S Main Street River Falls, Wi",8865667,44.8566511,-92.627484,River Falls,Family Fresh Market - River Falls,54022,Caribou,1,0,0,0,0,0,0,0,0
"5763 Blaine Avenue Inver Grove Heights, MN",8865386,44.8658366,-93.0561135,Inver Grove Heights,Inver Grove Heights - Upper 55th & Blaine,55076,Caribou,1,1,1,1,1,1,0,0,0
"9008 Cahill Avenue Inver Grove Heights, MN",8865380,44.8190981,-93.0386348,Inver Grove Heights,Inver Grove Heights - Cahill & Concord,55076,Caribou,1,1,1,1,1,1,0,0,0
"2515 White Bear Avenue Maplewood, MN",8865397,45.01795078264798,-93.02053213119507,Maplewood,Maple Ridge Shopping Center,55109,Caribou,1,1,0,1,1,0,0,0,0
"1193 South Robert Street West St. Paul, MN",8865378,44.91021290726577,-93.08123856782919,West St. Paul,West St. Paul - South Robert,55118,Caribou,1,1,1,1,1,1,0,0,0
"2751 County Road E White Bear Lake, MN",8865385,45.05066094590387,-92.98569425940514,White Bear Lake,Coffee & Bagels White Bear Lake - Century and County Road E,55110,Caribou,1,0,1,1,0,0,0,0,0
"1823 Market Boulevard Hastings, MN",8865620,44.7370165,-92.8937579,Hastings,Hastings - Market Blvd,55033,Caribou,1,1,1,1,1,1,0,0,0
"3100 White Bear Avenue North Maplewood, MN",8865401,45.035338381204575,-93.01705867052084,Maplewood,Maplewood - White Bear Ave,55109,Caribou,1,1,1,1,1,1,0,0,0
"3001 White Bear Avenue Maplewood, MN",8865400,45.03169712887248,-93.02195370197296,Maplewood,Maplewood Mall,55109,Caribou,1,1,0,0,1,0,0,0,0
"4733 Highway 61 White Bear Lake, MN",8865375,45.085179945728946,-93.01086544990545,White Bear Lake,Coffee & Bagels White Bear Lake,55110,Caribou,1,0,1,1,0,0,0,0,0
"110 West 4th Street New Richmond, Wi",8865663,45.1188665,-92.5389648,New Richmond,Family Fresh Market - New Richmond,54017,Caribou,0,0,0,0,0,0,0,0,0
"1080 Highway 96 White Bear Lake, MN",8865376,45.078625174788506,-93.05463105440134,White Bear Lake,White Bear Lake - 35 & 96,55127,Caribou,1,1,0,1,1,1,0,0,0
"4630 Centerville Road White Bear Lake, MN",10853384,45.08139191540208,-93.0554305369161,White Bear Lake,Lunds & Byerlys - White Bear Lake,55110,Caribou,1,0,0,0,0,0,0,0,0
"2900 Ames Crossing Road Eagan, MN",10919820,44.8519219,-93.1079574,Eagan,Prime Therapeutics - Not open to the public,55121,Caribou,0,0,0,0,0,0,0,0,0
"610 Opperman Drive Eagan, MN",8865629,44.82497436287143,-93.11298235581967,Eagan,Thomson Reuters,55123,Caribou,0,0,0,1,0,0,0,0,0
"2864 Highway 55 Eagan, MN",8865389,44.85398641710763,-93.13114374876022,Eagan,Eagan - Hwy 55,55121,Caribou,1,1,1,1,1,1,0,0,0
"720 Main Street Mendota Heights, MN",8865403,44.884526775355255,-93.12035858631134,Mendota Heights,Mendota Heights Town Center,55118,Caribou,1,1,1,1,1,0,0,0,0
"3405 Promenade Avenue Eagan, MN",8865379,44.83296411492008,-93.153615295887,Eagan,Coffee & Bagels City Vue Commons,55121,Caribou,1,0,1,1,0,0,0,0,0
"230 Spring Street St. Paul, MN",8865372,44.94004942873604,-93.09980750083918,St. Paul,St. Paul - Shepard Road,55102,Caribou,0,1,1,1,1,0,0,0,0
"56 East 6th Street St. Paul, MN",8865369,44.94709,-93.092804,St. Paul,Alliance Bank Center,55101,Caribou,1,1,0,1,1,0,0,0,0
"730 Apollo Drive Lino Lakes, MN",8865402,45.18236579573738,-93.10789167881012,Lino Lakes,Lino Lakes - Apollo Drive,55014,Caribou,1,1,1,1,1,1,0,0,0
"4345 Pheasant Ridge Drive Blaine, MN",8865456,45.16359698555037,-93.1599131226539,Blaine,Lexington & I-35,55449,Caribou,0,1,0,1,1,0,0,0,0
"12417 Ulysses Street Blaine, MN",8865455,45.19649410192648,-93.23568552732468,Blaine,242 & 65,55434,Caribou,1,1,1,1,1,0,0,0,0
"112 Chieftain Street Osceola, Wi",8865665,45.32024537201568,-92.70403146743774,Osceola,Dick's Fresh Market - Osceola,54020,Caribou,1,0,0,0,0,0,0,0,0
"10400 Baltimore Street Blaine, MN",8865459,45.159244,-93.2342489,Blaine,Blaine - 105th Avenue NE,55449,Caribou,1,1,1,1,1,1,0,0,0
"113 Village Center Drive North Oaks, MN",8865621,45.0801477,-93.1147351,North Oaks,North Oaks,55127,Caribou,1,0,0,1,1,0,0,0,0
"8200 Coral Sea Street NE Mounds View, MN",8865679,45.1186749902348,-93.19925844669336,Mounds View,Medtronic - Not open to the public,55112,Caribou,0,0,0,1,0,0,0,0,0
"5911 St. Croix Trail North Branch, MN",8865388,45.51056119486808,-92.98851996660227,North Branch,Coffee & Bagels North Branch,55056,Caribou,0,0,0,1,0,0,0,0,0
"2585 County Road 10 Mounds View, MN",8865458,45.10774658055022,-93.21228727698326,Mounds View,Mounds View - County Rd 10,55112,Caribou,1,1,1,1,1,1,0,0,0
"1966 Bunker Lake Boulevard NW Andover, MN",8865454,45.2190509,-93.3158708,Andover,Andover Marketplace East,55304,Caribou,1,1,1,1,1,1,0,0,0
"8097 Highway 65 Spring Lake Park, MN",8865457,45.114814,-93.2410201,Spring Lake Park,Spring Lake Park - Hwy 65,55432,Caribou,1,1,1,1,1,1,0,0,0
"1835 Gateway Drive Coon Rapids, MN",8865453,45.18533390055165,-93.31321746110916,Coon Rapids,Coon Rapids - Hanson Blvd & Gateway Drive,55433,Caribou,1,1,1,1,1,1,0,0,0
"8601 Springbrook Drive Blaine, MN",8865452,45.126267900001366,-93.26636463403702,Blaine,Springbrook,55433,Caribou,1,1,0,1,1,0,0,0,0
"3354 Rice Street Little Canada, MN",8865381,45.0430438,-93.1057177,Little Canada,Little Canada - Rice Street,55126,Caribou,1,1,1,1,1,1,0,0,0
"3868 150th Street West Rosemount, MN",8865373,44.7312104,-93.1435842,Rosemount,Rosemount Commons,55068,Caribou,1,1,1,1,1,1,0,0,0
"15730 Emperor Ave. Apple Valley, MN",14983120,44.7204096,-93.17508869999999,Apple Valley,Cobblestone Lake,55124,Caribou,0,0,0,0,0,0,0,0,0
"17605 Glasgow Avenue Lakeville, MN",8865468,44.6941903,-93.215088,Lakeville,Lakeville - Cedar & Dodd,55044,Caribou,1,1,1,1,1,0,0,0,0
"1380 Duckwood Drive Eagan, MN",8865404,44.82687888190396,-93.16573351621628,Eagan,Eagan - Duckwood,55123,Caribou,1,1,1,1,1,1,0,0,0
"1299 Promenade Place Eagan, MN",8865628,44.8363174713923,-93.15832793712616,Eagan,Lunds & Byerlys - Eagan,55121,Caribou,1,0,0,0,0,0,0,0,0
"14638 Cedar Avenue Apple Valley, MN",8865469,44.7364302267299,-93.21703344583511,Apple Valley,Apple Valley - Cedar Avenue,55124,Caribou,1,1,1,1,1,0,0,0,0
"228 Little Canada Road Little Canada, MN",14891125,45.02312197608977,-93.09106558489208,Little Canada,Little Canada & 35 E,55117,Caribou,1,0,1,1,0,1,1,0,0
"3673 Lexington Avenue North Arden Hills, MN",8865384,45.05165577574342,-93.14763665199285,Arden Hills,Arden Hills - Lexington & 694,55126,Caribou,1,1,1,1,1,1,0,0,0
"401 Robert Street St. Paul, MN",8865371,44.9486509,-93.092294,St. Paul,Securian Financial,55101,Caribou,1,1,1,1,1,0,0,0,0
"444 Cedar Street St. Paul, MN",8865368,44.94807611301412,-93.09408903121954,St. Paul,Town Square,55101,Caribou,0,1,0,1,1,0,0,0,0
"115 East 10th Street St. Paul, MN",8865618,44.9513517,-93.0951996,St. Paul,Lunds & Byerlys - Downtown St. Paul,55101,Caribou,0,0,0,0,0,0,0,0,0
"1720 Rice Street Maplewood, MN",8865383,44.992991906682725,-93.10549110174173,Maplewood,Rice & Larpenteur,55113,Caribou,0,1,1,1,1,1,0,0,0
"2714 Lincoln Drive Roseville, MN",8865625,45.0223969,-93.1686543,Roseville,Roseville Crossing,55113,Caribou,1,0,0,1,1,0,0,0,0
"1601 West County Road C Roseville, MN",8865623,45.02194554453962,-93.17065000534058,Roseville,Lunds & Byerlys - Roseville,55113,Caribou,0,0,0,0,0,0,0,0,0
"209 6th Avenue Northeast Isanti, MN",8865676,45.49157746566519,-93.23557019233704,Isanti,Coborn's - Isanti,55040,Caribou,1,0,0,0,0,1,0,0,0
"1595 Second Avenue Northeast Cambridge, MN",8865450,45.57319513268318,-93.20516601204878,Cambridge,Cambridge - 2nd Ave,55008,Caribou,1,1,1,1,1,1,0,0,0
"3507 Round Lake Boulevard NW Anoka, MN",8865427,45.21760535478905,-93.35823565721512,Anoka,Round Lake Blvd,55303,Caribou,1,1,1,1,1,1,0,0,0
"14050 St. Francis Boulevard Ramsey, MN",8865430,45.2254694023544,-93.39810401201242,Ramsey,Ramsey - St. Francis Blvd,55303,Caribou,1,1,1,1,1,1,0,0,0
"3536 Main Street Coon Rapids, MN",8865424,45.196976,-93.3554562,Coon Rapids,Coon Rapids - Main Street,55448,Caribou,1,1,1,1,1,1,0,0,0
"2022 Northdale Boulevard Coon Rapids, MN",8865460,45.18049316337576,-93.31802263855934,Coon Rapids,Coon Rapids - Hanson Blvd,55433,Caribou,1,1,0,1,1,0,0,0,0
"101 West Main Street Anoka, MN",8865451,45.19953801477647,-93.39286163449287,Anoka,Anoka - West Main,55303,Caribou,1,1,1,1,1,1,0,0,0
"7988 Sunwood Drive NW Ramsey, MN",8865429,45.2351903,-93.4694583,Ramsey,Ramsey Town Center,55303,Caribou,0,1,0,1,1,1,0,0,0
"19425 Evans Street Northwest Elk River, MN",8865675,45.32335526410793,-93.55934500694269,Elk River,Coborn's - Elk River,55330,Caribou,1,0,0,1,0,1,0,0,0
"19260 Freeport Street NW Elk River, MN",8865433,45.3193211,-93.5638363,Elk River,Elk River - Freeport Street,55330,Caribou,1,1,0,1,1,0,0,0,0
"18157 Carson Court Elk River, MN",8865415,45.30036556525983,-93.55480402708054,Elk River,Carson Street Station,55330,Caribou,0,1,1,1,1,1,0,0,0
"11468 Jefferson Court Champlin, MN",8865423,45.16083422049527,-93.39266690410989,Champlin,Champlin (Hwy 169 & Elm Creek Pkwy),55316,Caribou,1,1,1,1,1,1,0,0,0
"9638 Colorado Lane North Brooklyn Park, MN",8865436,45.131888121953686,-93.35709035396582,Brooklyn Park,Brooklyn Park - 610 and Zane,55445,Caribou,1,1,1,1,1,1,0,0,0
"8559 Edinburgh Centre Drive North Brooklyn Park, MN",8865421,45.11068280927532,-93.30548540497108,Brooklyn Park,Brooklyn Park - Edinburgh Center,55443,Caribou,1,1,0,1,1,0,0,0,0
"272 57th Avenue NE Fridley, MN",8865417,45.07130816989309,-93.26683402061462,Fridley,Coffee & Bagels Fridley Market,55432,Caribou,0,0,0,1,0,0,0,0,0
"2218 County Road D Roseville, MN",8865387,45.03545115965738,-93.1944465637207,Roseville,Roseville - Tower Glen,55112,Caribou,0,1,1,1,1,0,0,0,0
"703 Northland Drive Princeton, MN",8865426,45.55685064985348,-93.58406960964203,Princeton,Coffee & Bagels Princeton,55371,Caribou,0,0,0,1,0,0,0,0,0
"13635 Northdale Boulevard Rogers, MN",8865432,45.20189573041662,-93.55523586273193,Rogers,Rogers - I94 and 101,55374,Caribou,1,1,1,1,1,1,0,0,0
"726 Martin Avenue Big Lake, MN",8865416,45.33426399653642,-93.73472929000854,Big Lake,Big Lake - Town Square,55309,Caribou,1,1,0,1,1,0,0,0,0
"11008 61st Street Northeast Albertville, MN",8865431,45.23972487871,-93.66380631923681,Albertville,Albertville - 61st Avenue,55301,Caribou,1,1,1,1,1,1,0,0,0
"5698 La Centre Avenue NE Albertville, MN",8865678,45.233890520132135,-93.66086661815643,Albertville,Coborn's - Albertville,55301,Caribou,1,0,0,0,0,1,0,0,0
"2700 39th Avenue NE Minneapolis, MN",8865360,45.0392742,-93.2201933,St. Anthony,Silver Lake Village,55421,Caribou,1,1,1,1,1,0,0,0,0
"1595 MN-36 W Roseville, MN",8865624,45.012747,-93.172333,Roseville,Rosedale Mall,55113,Caribou,1,0,1,0,1,0,0,0,0
"2111 Snelling Avenue North Roseville, MN",8865626,45.0047233,-93.1674099,Roseville,Har Mar Mall Bruegger's Co-Brand,55113,Caribou,1,0,1,0,0,1,0,0,0
"16393 County Road 30 Maple Grove, MN",8865674,45.12542576517041,-93.48877876996988,Maple Grove,Dunkirk Square Bruegger's Co-Brand,55311,Caribou,0,0,1,0,0,0,0,0,0
"8881 Jefferson Highway Osseo, MN",8865437,45.114908441220194,-93.40296819806105,Osseo,Osseo - Jefferson Hwy,55369,Caribou,1,1,1,1,1,1,0,0,0
"8073 Wedgewood Lane North Maple Grove, MN",8865438,45.1010544,-93.4504872,Maple Grove,Wedgewood,55369,Caribou,1,1,0,1,1,0,0,0,0
"520 Jefferson Blvd. NW Big Lake, MN",14998507,45.3322332,-93.74169719999999,Big Lake,Hwy 10 & Eagle Lake - Drive-Thru Only,55309,Caribou,1,0,0,1,0,1,0,0,0
"1523 7th Street East Monticello, MN",8865419,45.292992098905074,-93.77142459154129,Monticello,Union Crossing,55362,Caribou,0,1,1,1,1,1,0,0,0
"100 6th Street Monticello, MN",8865420,45.30157488824928,-93.79779607057571,Monticello,Monticello - 6th St,55362,Caribou,1,1,1,1,1,1,0,0,0
"1180 Shingle Creek Parkway Brooklyn Center, MN",8865446,45.0586029,-93.316344,Brooklyn Center,Coffee & Bagels Shingle Creek Crossing,55430,Caribou,1,0,0,0,0,1,0,1,1
"3900 Lakebreeze Avenue N Brooklyn Center, MN",8865447,45.0438425797353,-93.33049356937403,Brooklyn Center,Brooklyn Center HQ,55429,Caribou,1,1,1,1,1,0,0,0,0
"1730 New Brighton Boulevard Minneapolis, MN",8865361,45.0056685,-93.2280522,Minneapolis,Minneapolis - The Quarry,55413,Caribou,1,1,1,1,1,0,0,0,0
"25 University Avenue Southeast Minneapolis, MN",8865607,44.98743768960104,-93.2552307844162,Minneapolis,Lunds & Byerlys - Northeast Minneapolis,55414,Caribou,0,0,0,0,0,0,0,0,0
"501 5th Street North Minneapolis, MN",8865344,44.983726,-93.2788213,Minneapolis,Target Field Station,55401,Caribou,1,1,1,1,1,0,0,0,0
"351 Willow Bend Crystal, MN",8865439,45.0543982,-93.3688931,Crystal,Crystal Shopping Center,55428,Caribou,1,1,0,1,1,0,0,0,0
"509 Washington Avenue S Minneapolis, MN",8865348,44.9785183,-93.2610213,Minneapolis,5th & Washington,55415,Caribou,1,1,1,1,1,0,0,0,0
"100 South 5th Street Minneapolis, MN",8865346,44.97839291431327,-93.26865658164024,Minneapolis,Minneapolis - 5th Street Towers,55402,Caribou,1,1,0,1,1,0,0,0,0
"50 South 6 Street Minneapolis, MN",8865357,44.97835315401318,-93.27191165889548,Minneapolis,Fifty South Sixth - Dorsey Tower,55402,Caribou,1,1,0,1,1,0,0,0,0
"7635 Jolly Lane Brooklyn Park, MN",8865422,45.09412097632187,-93.38310531779098,Brooklyn Park,Brooklyn Blvd & 81,55445,Caribou,1,1,0,1,1,0,0,0,0
"400 West 5th Street Northfield, MN",8865580,44.455401026581875,-93.16545456647873,Northfield,Northfield - Shoppes At Westside Plaza,55057,Caribou,1,1,1,1,1,0,0,0,0
"726 Main Street Red Wing, MN",8865619,44.56459845637776,-92.53946453332901,Red Wing,Red Wing - Main St,55066,Caribou,1,1,1,1,1,1,0,0,0
"1920 Grant Street NW Faribault, MN",8865571,44.295273164414404,-93.29704105854034,Faribault,Hy-Vee - Faribault,55021,Caribou,1,0,0,0,0,0,0,0,0
"2280 Grant Street Faribault, MN",12007229,44.29471,-93.30217,Faribault,Faribault - Grant Street,55021,Caribou,1,1,0,1,1,1,0,0,0
"18444 Kenrick Avenue Lakeville, MN",8865492,44.6817603,-93.2881216,Lakeville,Lakeville - Timbercrest,55044,Caribou,1,1,1,1,1,0,0,0,0
"17880 Kenwood Trail Lakeville, MN",9061076,44.68990283834171,-93.28116774559021,Lakeville,Coffee & Bagels Kenwood Trail,55044,Caribou,1,0,1,1,0,0,0,0,0
"17450 Kenwood Trail Lakeville, MN",8865489,44.69602444134964,-93.28549951314932,Lakeville,Lakeville-Hwy 50,55044,Caribou,1,1,0,1,1,0,0,0,0
"1100 East County Road 42 Burnsville, MN",8865504,44.737997325261595,-93.25862243771553,Burnsville,Burnsville - Wood Park Crossing,55337,Caribou,1,1,0,1,1,0,0,0,0
"401 E County Road 42 Burnsville, MN",8865712,44.73859462154736,-93.2702243328095,Burnsville,Lunds & Byerlys - Burnsville,55306,Caribou,1,0,0,0,0,0,0,0,0
"14204 Burnhaven Drive Burnsville, MN",8865470,44.74413479829643,-93.28914999961853,Burnsville,Burnsville Center,55306,Caribou,1,1,0,0,1,0,0,0,0
"2149 Cliff Road Eagan, MN",8865627,44.79111666993209,-93.21724936366087,Eagan,Eagan - Cliff Road,55122,Caribou,1,0,1,1,1,0,0,0,0
"2351 County Road 42 Burnsville, MN",14998714,44.7457606,-93.30880789999999,Burnsville,Burnsville County 42 - Drive-Thru Only,55306,Caribou,1,0,0,1,0,1,0,0,0
"12601 Nicollet Avenue Burnsville, MN",8865490,44.77343669972011,-93.27711760997772,Burnsville,Burnsville Parkway & Nicollet,55337,Caribou,1,1,1,1,1,0,0,0,0
"2001 Cliff Road East Burnsville, MN",8865491,44.7896572938755,-93.24540451169014,Burnsville,Burnsville - Town & Country,55337,Caribou,1,1,1,1,1,1,0,0,0
"7745 Egan Drive Savage, MN",8865461,44.74516542597854,-93.37900936603546,Savage,Savage (Cty Rd 42 & 13-Super Target),55378,Caribou,1,1,1,1,1,1,0,0,0
"16731 Highway 13 Prior Lake, MN",8865713,44.706413763813266,-93.42866241931915,Prior Lake,Lunds & Byerlys - Prior Lake,55372,Caribou,0,0,0,0,0,0,0,0,0
"2400 Mystic Lake Boulevard Prior Lake, MN",8865715,44.73058870091565,-93.47435063558197,Prior Lake,Mystic Lake,55372,Caribou,1,0,0,0,0,0,0,0,0
"8360 Hansen Avenue Shakopee, MN",8865467,44.77661073560036,-93.41215074062347,Shakopee,Coffee & Bagels Shakopee Crossing,55379,Caribou,0,0,0,1,0,0,0,0,0
"3835 West Old Shakopee Road Bloomington, MN",8865487,44.810284370102565,-93.3291283249855,Bloomington,France & Old Shakopee,55431,Caribou,1,1,1,1,1,0,0,0,0
"5159 West 98th Street Bloomington, MN",8865721,44.823859804847025,-93.34946751594543,Bloomington,Lunds & Byerlys - Bloomington,55437,Caribou,1,0,0,0,0,0,0,0,0
"200 Alton Ave. SE New Prague, MN",14964167,44.5419661,-93.5541211,New Prague,Coborns - New Prague,56071,Caribou,0,0,0,0,0,0,0,0,0
"757 Grand Avenue St. Paul, MN",8865367,44.940187076464355,-93.1321294605732,St. Paul,Grand II,55105,Caribou,1,1,1,1,1,0,0,0,0
"2340 West 7th Street St. Paul, MN",8865392,44.903907862123425,-93.16492214798927,St. Paul,St. Paul - West 7th Street,55116,Caribou,1,1,1,1,1,1,0,0,0
"4300 Glumack Drive St. Paul, MN",8865615,44.88251078129889,-93.20511390674591,St. Paul,MSP Airport Terminal 1 - Concourse F - Post-Security,55111,Caribou,0,0,1,0,1,0,0,0,0
"4300 Glumack Drive St. Paul, MN",8865614,44.88188456249005,-93.20650018900375,St. Paul,MSP Airport Terminal 1 - Concourse G - Post-Security,55111,Caribou,0,0,0,0,1,0,0,0,0
"157 East Main St. Ellsworth, Wi",14887095,44.730911,-92.476584,Ellsworth,Nilssen Ellsworth,54011,Caribou,0,0,0,0,0,0,0,0,0
"1055 Grand Avenue St. Paul, MN",8865366,44.9401591,-93.1444414,St. Paul,Grand I - Oxford,55105,Caribou,1,1,0,1,1,0,0,0,0
"1817 Randolph Avenue St. Paul, MN",8865393,44.92733125369815,-93.17687541246414,St. Paul,St. Paul - Randolph & Fairview,55105,Caribou,1,1,0,1,1,0,0,0,0
"68 Snelling Avenue South St. Paul, MN",8865390,44.93948934147295,-93.16642820835114,St. Paul,St. Paul - Grand & Snelling,55105,Caribou,1,1,1,1,1,0,0,0,0
"2134 Ford Parkway St. Paul, MN",8865391,44.91741945431069,-93.19100797176355,St. Paul,Highland Park,55116,Caribou,1,1,0,1,1,0,0,0,0
"4300 Glumack Drive St. Paul, MN",14964062,44.88339092738654,-93.2113548639029,St. Paul,MSP Airport Terminal 2 - MSP Mall,55111,Caribou,0,0,0,0,0,0,0,0,0
"7150 Humphrey Drive Minneapolis, MN",8865610,44.874,-93.228286,Minneapolis,MSP Airport Terminal 2 - Baggage Claim,55450,Caribou,0,0,0,0,1,0,0,0,0
"7150 Humphrey Drive Minneapolis, MN",8865613,44.873410105516356,-93.22869837284088,Minneapolis,MSP Airport Terminal 2 - Concourse H - Post-Security,55450,Caribou,0,0,0,0,1,0,0,0,0
"5102 Center Court - Nickelodeon Universe Bloomington, MN",8865723,44.8557729,-93.2421734,Bloomington,Mall Of America - Nickelodeon Universe,55425,Caribou,0,0,0,0,0,0,0,0,0
"60 East Broadway S-380 Bloomington, MN",8865722,44.854593762894694,-93.24246212822436,Bloomington,Mall Of America - 3rd Floor South,55425,Caribou,1,0,0,0,1,0,0,0,0
"60 East Broadway S-226 Bloomington, MN",8865484,44.855401,-93.243168,Bloomington,Mall of America - South Skyway,55425,Caribou,0,1,0,0,1,0,0,0,0
"60 East Broadway N-194 Bloomington, MN",8865485,44.855399,-93.243172,Bloomington,Mall of America - 1st Floor North,55425,Caribou,1,1,1,0,1,0,0,0,0
"60 East Broadway N-224 Bloomington, MN",8865486,44.855399,-93.243172,Bloomington,Mall of America - 2nd Floor North,55425,Caribou,1,1,0,0,1,0,0,0,0
"1601 E 66th St. Richfield, MN",9740254,44.8832428,-93.251112,Richfield,Coffee & Bagels 66th & 16th,55423,Caribou,0,0,0,1,0,0,0,0,0
"1700 East 66th Street Richfield, MN",8865364,44.88386542305174,-93.24980869889254,Richfield,Cedar Point,55423,Caribou,0,1,0,1,1,0,0,0,0
"8000 Norman Center Drive Bloomington, MN",8865478,44.8524443323772,-93.35169106721878,Bloomington,Bloomington - 8000 Tower,55437,Caribou,1,1,0,1,1,0,0,0,0
"7950 Penn Avenue South Bloomington, MN",8865488,44.8592821,-93.3094841,Bloomington,Penn & 79th,55431,Caribou,1,1,1,1,1,1,0,0,0
"225 Triangle Lane N Jordan, MN",14812580,44.6710697,-93.6368813,Jordan,Hwy 169 & Creek - Drive-Thru Only,55352,Caribou,1,0,1,1,0,1,1,0,0
"1539 17th Avenue East Shakopee, MN",8865462,44.774179291234,-93.50400164723396,Shakopee,Shakopee Valley Marketplace,55379,Caribou,1,1,1,1,1,1,0,0,0
"1361 Heather Street Shakopee, MN",8865471,44.7825365953796,-93.50682333111769,Shakopee,Shakopee - Marschall Road,55379,Caribou,1,1,1,1,1,1,0,0,0
"1004 Gateway Drive Chaska, MN",8865463,44.80376854866843,-93.57798635959625,Chaska,Chaska - Gateway Drive,55318,Caribou,0,1,1,1,1,1,0,0,0
"142 Pioneer Trail Chaska, MN",8865464,44.82974562219914,-93.6001186072827,Chaska,Chaska Pioneer,55318,Caribou,1,1,1,1,1,0,0,0,0
"1 Valleyfair Drive Shakopee, MN",8865717,44.79863495163102,-93.45408681349181,Shakopee,Valleyfair,55379,Caribou,0,0,0,0,0,0,0,0,0
"920 West 78th Street Chanhassen, MN",8865465,44.86368101990967,-93.5447403788566,Chanhassen,Chanhassen - West 78th Street,55317,Caribou,1,1,0,1,1,0,0,0,0
"800 West 78th Street Chanhassen, MN",8865710,44.86362778865807,-93.54169338941574,Chanhassen,Lunds & Byerlys - Chanhassen,55317,Caribou,1,0,0,0,0,0,0,0,0
"16506 West 78th Street Eden Prairie, MN",8865500,44.863473797974535,-93.48720967769628,Eden Prairie,Eden Prairie - West 78th,55344,Caribou,1,1,0,1,1,0,0,0,0
"77 Highway 5 West Waconia, MN",8865714,44.84287335675574,-93.78720134496683,Waconia,Waconia Bruegger's Bagels Co-Brand,55387,Caribou,1,0,1,0,0,0,0,0,0
"851 Marketplace Drive Waconia, MN",13686627,44.8363533,-93.79997089999999,Waconia,Mackenthun's Fine Foods,55387,Caribou,0,0,0,0,0,0,0,0,0
"13250 Technology Drive Eden Prairie, MN",8865493,44.85923033708233,-93.44247981905937,Eden Prairie,Eden Prairie Transit Station,55344,Caribou,1,1,0,1,1,0,0,0,0
"8251 Flying Cloud Drive Eden Prairie, MN",8865734,44.854309660213175,-93.42448890209198,Eden Prairie,Eden Prairie Center,55344,Caribou,1,0,0,0,0,0,0,0,0
"970 Prairie Center Drive Eden Prairie, MN",8865731,44.86518858456258,-93.44255894422531,Eden Prairie,Lunds & Byerlys - Eden Prairie,55344,Caribou,0,0,0,0,0,0,0,0,0
"11611 Leona Road Eden Prairie, MN",8865503,44.85902500039644,-93.42486709356308,Eden Prairie,Eden Prairie - Leona & Flying Cloud Drive,55344,Caribou,1,1,1,1,1,1,0,0,0
"804 North Minnesota Ave. St. Peter, MN",14824719,44.33222412212463,-93.95058038773152,St. Peter,Hwy 169 & West Ramsey - Drive-Thru Only,56082,Caribou,1,0,0,1,0,1,0,0,0
"612 South Minnesota Avenue St. Peter, MN",8865582,44.321902318614335,-93.96046131849289,St. Peter,Family Fresh Market - St. Peter,56082,Caribou,1,0,0,0,0,0,0,0,0
"23520 Highway 7 Shorewood, MN",8865472,44.89277403610274,-93.58002483844763,Shorewood,Shorewood - Hwy 7,55331,Caribou,1,1,0,1,1,0,0,0,0
"5663 Manitou Road Excelsior, MN",8865466,44.90120345262917,-93.58850732445717,Tonka Bay,Tonka Village,55331,Caribou,1,1,0,1,1,1,0,0,0
"1127 Larpenteur Avenue W Roseville, MN",8865382,44.99270168940479,-93.14762055873871,Roseville,Roseville - Lexington & Larpenteur,55113,Caribou,1,1,1,1,1,0,0,0,0
"917 Washington Avenue SE Minneapolis, MN",8865345,44.9741264,-93.2248368,Minneapolis,Stadium Village,55414,Caribou,0,1,1,1,1,0,0,0,0
"604 Washington Ave. SE Minneapolis, MN",10128890,44.9734628,-93.2298591,Minneapolis,Coffee & Bagels Harvard & Washington,55414,Caribou,0,0,0,1,0,0,0,0,0
"515 Delaware Street SE Minneapolis, MN",8865609,44.97299566497258,-93.23165090674593,Minneapolis,University Of Minnesota - Moos Tower,55455,Caribou,1,0,0,0,0,0,0,0,0
"1925 4th Street S Minneapolis, MN",9990966,44.9695911,-93.2445968,Minneapolis,UMN - Hanson Hall,55455,Caribou,0,0,0,0,0,0,0,0,0
"4745 Cedar Avenue South Minneapolis, MN",8865359,44.916571392832736,-93.2469280064106,Minneapolis,Minneapolis - Cedar & Minnehaha,55407,Caribou,0,1,1,1,1,1,0,0,0
"550 S 4th Street Minneapolis, MN",8865350,44.976938597570914,-93.26192423701286,Minneapolis,Coffee & Bagels Wells Fargo Tower,55415,Caribou,1,0,0,0,1,0,0,1,1
"200 South 6th Street Minneapolis, MN",8865353,44.976923418597664,-93.26784253120422,Minneapolis,US Bank Plaza,55402,Caribou,1,1,1,1,1,0,0,0,0
"222 South 9th Street Minneapolis, MN",8865351,44.97374523257511,-93.26994806528097,Minneapolis,Cambell Mithun Tower,55402,Caribou,1,1,0,1,1,0,0,0,0
"109 South 7th Street Minneapolis, MN",8865347,44.9756681025866,-93.27090204662704,Minneapolis,Baker Center,55402,Caribou,1,1,0,1,1,0,0,0,0
"555 Nicollet Mall Minneapolis, MN",8865356,44.97813392909969,-93.27092573046684,Minneapolis,RBC Plaza,55402,Caribou,1,1,1,0,1,0,0,0,0
"651 Nicollet Mall Minneapolis, MN",8865355,44.977257355081704,-93.27142059803009,Minneapolis,Gaviidae,55402,Caribou,1,1,0,1,1,0,0,0,0
"6545 Lyndale Avenue S Richfield, MN",8865363,44.88380840956616,-93.28594207763672,Richfield,Coffee & Bagels Lyndale Station,55423,Caribou,0,0,0,1,0,0,0,0,0
"4606 Nicollet Avenue South Minneapolis, MN",8865362,44.91946120831772,-93.27837288379669,Minneapolis,46th & Nicollet,55419,Caribou,1,1,1,1,1,0,0,0,0
"12569 Wayzata Boulevard Minnetonka, MN",8865479,44.968004,-93.437157,Minnetonka,Ridgedale Kiosk,55305,Caribou,1,1,0,0,1,0,0,0,0
"1700 Plymouth Road Minnetonka, MN",8865482,44.96712075755921,-93.44329118728638,Minnetonka,Coffee & Bagels Minnetonka - Plymouth Road,55305,Caribou,0,0,0,1,0,0,0,0,0
"13081 Ridgedale Drive Minnetonka, MN",8865718,44.96844535401098,-93.44717236441807,Minnetonka,Lunds & Byerlys - Ridgedale,55305,Caribou,0,0,0,0,0,0,0,0,0
"11210 Wayzata Boulevard Minnetonka, MN",8865480,44.97358963924426,-93.42183619737625,Minnetonka,West Ridge Plaza,55305,Caribou,1,1,1,1,1,0,0,0,0
"11400 Highway 7 Minnetonka, MN",8865730,44.93394892976536,-93.42588096857077,Minnetonka,Lunds & Byerlys - Hwy 7 Minnetonka,55343,Caribou,0,0,0,0,0,0,0,0,0
"1601 Highway 7 Hopkins, MN",8865497,44.933694895485175,-93.42017638825746,Hopkins,Hopkins - Highway 7,55305,Caribou,1,1,0,1,1,0,0,0,0
"1 General Mills Boulevard Golden Valley, MN",8865418,44.976069594880826,-93.39627742767334,Golden Valley,General Mills - Not open to the public,55426,Caribou,0,1,0,1,1,0,0,0,0
"10160 6th Avenue North Plymouth, MN",8865440,44.9855863,-93.4097186,Plymouth,Plymouth - Hwy 55 and Revere,55441,Caribou,1,1,0,1,1,0,0,0,0
"8208 Highway 7 St. Louis Park, MN",8865499,44.9368793,-93.3837013,St. Louis Park,Knollwood Mall,55426,Caribou,1,1,0,1,1,0,0,0,0
"1151 East Wayzata Boulevard Wayzata, MN",8865711,44.97242647084845,-93.50025594234467,Wayzata,Lunds & Byerlys - Wayzata,55391,Caribou,0,0,0,0,0,0,0,0,0
"2720 Annapolis Circle Plymouth, MN",8865443,45.00930430661773,-93.4505908191204,Plymouth,Plymouth Pointe Plaza,55441,Caribou,0,1,1,1,1,1,0,0,0
"3434 County Road 101 Minnetonka, MN",8865477,44.9410702,-93.5027964,Minnetonka,Cty Rd 101 & Minnetonka Blvd,55345,Caribou,0,1,1,1,1,1,0,0,0
"14444 Excelsior Boulevard Minnetonka, MN",8865502,44.9060251350328,-93.46365451812744,Minnetonka,Glenhaven,55345,Caribou,1,1,0,1,1,0,0,0,0
"1650 Park Place Boulevard St. Louis Park, MN",8865719,44.9662046,-93.3499028,St. Louis Park,Park Place,55416,Caribou,1,0,1,1,1,0,0,0,0
"5551 West Lake Street St. Louis Park, MN",8865496,44.94829821674884,-93.34995836019516,St. Louis Park,Lake & Minnetonka Boulevard,55416,Caribou,1,1,1,1,1,0,0,0,0
"5330 Cedar Lake Road St. Louis Park, MN",8865481,44.96303487204271,-93.34794402122503,St. Louis Park,St. Louis Park - Cedar Lake Road,55416,Caribou,1,1,1,1,1,1,0,0,0
"609 East Lake Street Wayzata, MN",8865476,44.969749006638686,-93.51323649287224,Wayzata,Wayzata - East Lake Street,55391,Caribou,1,1,1,1,1,0,0,0,0
"1400 County Road 101 N Plymouth, MN",8865434,44.99451694587268,-93.50108206272125,Plymouth,Highway 6 & 101,55447,Caribou,1,1,0,1,1,0,0,0,0
"5816 Lincoln Drive Edina, MN",8865501,44.89849416600501,-93.40010225772863,Edina,Highway 169 & Bren,55436,Caribou,1,1,0,1,1,0,0,0,0
"9900 Bren Road East Minnetonka, MN",8865732,44.8973532255488,-93.4033852815628,Minnetonka,UHG Bren Road - Not open to the public,55343,Caribou,0,0,0,0,0,0,0,0,0
"12880 Elm Creek Boulevard Maple Grove, MN",8865677,45.09649987937476,-93.44425678253174,Maple Grove,Lunds & Byerlys - Maple Grove,55369,Caribou,1,0,0,0,0,0,0,0,0
"11627 Fountains Drive Maple Grove, MN",8865428,45.09303767213527,-93.42736288905138,Maple Grove,Arbor Lakes,55369,Caribou,1,1,0,1,1,0,0,0,0
"13384 Bass Lake Road Maple Grove, MN",8865681,45.06880343044313,-93.44977559755324,Maple Grove,Bass Lake & 494 with Bruegger's Bagels,55311,Caribou,1,0,0,0,0,1,0,0,0
"12850 Bass Lake Road Maple Grove, MN",8865444,45.066019189615005,-93.44256430864328,Maple Grove,Bass Lake Road & Sycamore Lane,55369,Caribou,1,1,0,1,1,0,0,0,0
"325 Clydesdale Trail Medina, MN",8865435,45.0447058,-93.531279,Medina,Clydesdale Marketplace,55340,Caribou,1,1,1,1,1,1,0,0,0
"4130 Berkshire Lane Plymouth, MN",8865425,45.03015448845169,-93.45549551787678,Plymouth,Rockford Road,55446,Caribou,1,1,0,1,1,0,0,0,0
"3500 Vicksburg Lane Plymouth, MN",8865445,45.02038995255288,-93.48021447658539,Plymouth,Highway 55 & Vicksburg,55447,Caribou,1,1,0,1,1,0,0,0,0
"3455 Vicksburg Lane Plymouth, MN",8865673,45.0200217,-93.4849406,Plymouth,Lunds & Byerlys - Plymouth,55447,Caribou,1,0,0,0,0,0,0,0,0
"16725 County Road 24 Plymouth, MN",9235536,45.01964010609636,-93.49322319030756,Plymouth,Plymouth Station,55447,Caribou,1,1,1,1,1,0,0,0,0
"4345 Nathan Lane North Plymouth, MN",8865442,45.03374429560309,-93.40901255607605,Plymouth,Plymouth - Rockford Road & Nathan Lane,55442,Caribou,1,1,1,1,1,1,0,0,0
"9420 36th Avenue North New Hope, MN",8865441,45.0226324,-93.399587,New Hope,New Hope - 169 & 36th Avenue,55427,Caribou,1,1,0,1,1,0,0,0,0
"4210 Winnetka Avenue New Hope, MN",8865448,45.03374619109391,-93.37994948029524,New Hope,42nd & Winnetka,55428,Caribou,1,1,0,1,1,0,0,0,0
"1400 Babcock Boulevard Delano, MN",8865682,45.0370339,-93.7684866,Delano,Coborn's - Delano,55328,Caribou,1,0,0,0,0,0,0,0,0
"5401 Shoreline Drive Mound, MN",8865473,44.93610496913864,-93.6609336733818,Mound,Mound - Shoreline Drive,55364,Caribou,0,1,1,1,1,1,0,0,0
"701 3rd Avenue NE Buffalo, MN",8865449,45.179395645515314,-93.87240841984749,Buffalo,Coffee & Bagels Buffalo,55313,Caribou,0,0,0,1,0,0,0,0,0
"2073 West Wayzata Boulevard Long Lake, MN",8865474,44.9881849,-93.5787096,Long Lake,Long Lake - Wayzata Blvd,55356,Caribou,1,1,1,1,1,1,0,0,0
"3333 Shoreline Drive Navarre, MN",8865716,44.93391854906371,-93.60878348350525,Orono,Lunds & Byerlys - Navarre,55391,Caribou,0,0,0,0,0,0,0,0,0
"4754 County Road 101 Minnetonka, MN",8865475,44.91785820012901,-93.50394397974014,Minnetonka,7 HI,55345,Caribou,1,1,1,1,1,1,0,0,0
"6001 Shady Oak Road Minnetonka, MN",8865498,44.894704560427456,-93.41971457004547,Minnetonka,Shady Oak 2 - Minnetonka Crossings,55343,Caribou,0,1,1,1,1,1,0,0,0
"11000 Optum Circle Eden Prairie, MN",8865733,44.8906629259742,-93.41684192419052,Eden Prairie,United Health Group - Optum Building - Not open to the public,55344,Caribou,1,0,0,0,0,0,0,0,0
"5000 Vernon Avenue Edina, MN",12007345,44.9122189,-93.3546054,Edina,Interlachen & Vernon,55436,Caribou,1,1,1,1,1,1,0,0,0
"5350 Excelsior Boulevard St. Louis Park, MN",8865727,44.9317406,-93.3477526,St. Louis Park,Park Village,55416,Caribou,1,0,0,1,1,0,0,0,0
"5125 Edina Industrial Boulevard Edina, MN",8865483,44.863489,-93.3538224,Edina,Coffee & Bagels Edina-77th,55439,Caribou,0,0,0,1,0,0,0,0,0
"7171 France Avenue S Edina, MN",8865720,44.8736152,-93.3283462,Edina,Lunds & Byerlys - France Avenue Edina,55435,Caribou,1,0,0,0,0,0,0,0,0
"7101 France Avenue S Edina, MN",8865725,44.8744137159636,-93.32807421684265,Edina,Rue De France,55435,Caribou,1,0,0,1,1,0,0,0,0
"5184 Southdale Center Edina, MN",8865494,44.8810765,-93.3255388,Edina,Southdale Cart,55435,Caribou,1,1,0,0,1,0,0,0,0
"6803 York Avenue South Edina, MN",8865495,44.87921483742138,-93.32057476043701,Edina,Yorkdale Shoppes,55435,Caribou,1,1,0,1,1,0,0,0,0
"800 Nicollet Mall Minneapolis, MN",8865349,44.975942468928984,-93.27369779348373,Minneapolis,US Bancorp,55402,Caribou,1,1,0,1,1,0,0,0,0
"50 South 10th Street Minneapolis, MN",11245879,44.9746434,-93.27526080000001,Minneapolis,Retek,55403,Caribou,0,1,1,1,1,0,0,0,0
"900 2nd Avenue South Minneapolis, MN",8865354,44.97375294146627,-93.27175888937023,Minneapolis,Oracle Centre,55402,Caribou,0,1,0,1,1,0,0,0,0
"1100 Nicollet Avenue Minneapolis, MN",8865352,44.9729482,-93.2758319,Minneapolis,Coffee & Bagels 11th & Nicollet,55403,Caribou,0,0,0,1,0,0,0,0,0
"1201 Hennepin Avenue Minneapolis, MN",8865608,44.974300179229,-93.28069197668651,Minneapolis,Lunds & Byerlys - Downtown Minneapolis,55403,Caribou,0,0,0,0,0,0,0,0,0
"2300 Hennepin Avenue Minneapolis, MN",8865358,44.9597999272041,-93.29415231943125,Minneapolis,22nd & Hennepin,55405,Caribou,1,1,1,1,1,0,0,0,0
"1450 West Lake Street Minneapolis, MN",8865616,44.94867408264967,-93.29990833997721,Minneapolis,Lunds & Byerlys - Uptown Minneapolis,55408,Caribou,1,0,0,0,0,0,0,0,0
"3044 Excelsior Boulevard Minneapolis, MN",8865341,44.947475289630056,-93.32131907343864,Minneapolis,Lake & Excelsior,55416,Caribou,1,1,1,1,1,0,0,0,0
"4408 France Avenue S Edina, MN",8865729,44.92210873291562,-93.32929864525795,Edina,Edina - 44th And France,55424,Caribou,1,0,0,1,0,0,0,0,0
"4999 France Avenue South Edina, MN",8865340,44.91331293493962,-93.3287957310676,Minneapolis,50th & France,55410,Caribou,1,1,1,1,1,0,0,0,0
"3945 West 50th Street Edina, MN",8865726,44.91172305192856,-93.33053648471838,Edina,Lunds & Byerlys - 50th Street Edina,55424,Caribou,1,0,0,0,0,0,0,0,0
"6228 Penn Avenue South Richfield, MN",8865606,44.889444869486276,-93.30922901630402,Richfield,Lunds & Byerlys - Richfield,55423,Caribou,1,0,0,0,0,0,0,0,0
"3777 Park Center Boulevard St. Louis Park, MN",8865728,44.93499515537011,-93.3467584848404,St. Louis Park,Lunds & Byerlys - St. Louis Park,55416,Caribou,0,0,0,0,0,0,0,0,0
"5725 Duluth Street Golden Valley, MN",8865680,44.99878266707627,-93.35280418395996,Golden Valley,Lunds & Byerlys - Golden Valley,55422,Caribou,0,0,0,0,0,0,0,0,0
"7601 Penn Avenue South Richfield, MN",8865343,44.86373375116909,-93.30574080348015,Richfield,Best Buy - Main Lobby - Not open to the public,55423,Caribou,0,1,0,1,1,0,0,0,0
"7601 Penn Avenue S Richfield, MN",8865342,44.8633232,-93.3043516,Richfield,Best Buy - Cafeteria Kiosk - Not open to the public,55423,Caribou,0,1,0,1,1,0,0,0,0
"1100 MN-15 Hutchinson, MN",8865308,44.8745482,-94.3762949,Hutchinson,Coffee & Bagels Hutchinson,55350,Caribou,0,0,0,1,0,0,0,0,0
"1020 Hwy 15 South Hutchinson, MN",8865555,44.87751757462169,-94.37923729419708,Hutchinson,Cash Wise - Hutchinson,55350,Caribou,1,0,0,0,0,0,0,0,0
